{
"type": "FeatureCollection",
"features": [
{ "type": "Feature", "properties": { "ID": "10405180", "METLNKID": "", "FEATTYPE": "POINT", "SECCLASS": "UNCLASSIFIED", "NAME": "BARBARA ROBERTS HUMAN SERVICES BUILDING", "AREA": "", "PHONE": "", "ADDRESS": "500 SUMMER STREET NORTHEAST", "ADDRESS2": "", "CITY": "SALEM", "STATE": "OR", "ZIP": "97301", "ZIPP4": "1064", "COUNTY": "MARION", "FIPS": "41047", "DIRECTIONS": "SOUTHEAST SIDE OF SUMMER STREET NORTHEAST BETWEEN UNION STREET NORTHEAST AND MARION STREET NORTHEAST", "EMERGTITLE": "", "EMERGPHONE": "", "EMERGEXT": "", "CONTDATE": "2007\/12\/03", "CONTHOW": "PHONE", "GEODATE": "2007\/12\/04", "GEOHOW": "MANUAL", "NAICSCODE": "921190", "NAICSDESCR": "PUBLIC PROPERTY MANAGEMENT SERVICES, GOVERNMENT", "GEOLINKID": "21371598", "X": -123.027365, "Y": 44.942742, "ST_VENDOR": "NAVTEQ", "ST_VERSION": "2006Q4", "GEOPREC": "ONENTITY", "PHONELOC": "", "QC_QA": "TGS", "AGENCIES": "OREGON DEPARTMENT OF HUMAN SERVICES; ADMINISTRATIVE SERVICES OFFICE OF FINANCIAL SERVICES; DEPARTMENT OF HEALTH SERVICES", "AGENCY_PH": "503-945-5772" }, "geometry": { "type": "Point", "coordinates": [ 658107.935617, 1173840.287995 ] } }
,
{ "type": "Feature", "properties": { "ID": "10405467", "METLNKID": "", "FEATTYPE": "POINT", "SECCLASS": "UNCLASSIFIED", "NAME": "OREGON LIQUOR CONTROL COMMISSION BUILDING", "AREA": "503", "PHONE": "872-5000", "ADDRESS": "9079 SOUTHEAST MCLOUGHLIN BOULEVARD", "ADDRESS2": "", "CITY": "MILWAUKIE", "STATE": "OR", "ZIP": "97222", "ZIPP4": "7355", "COUNTY": "CLACKAMAS", "FIPS": "41005", "DIRECTIONS": "WEST SIDE OF FRONTAGE AVE APPROX 0.31 MILES NORTH OF THE INTERSECTION OF FRONTAGE AVE AND SOUTHEAST MILPORT ROAD", "EMERGTITLE": "", "EMERGPHONE": "", "EMERGEXT": "", "CONTDATE": "2007\/12\/04", "CONTHOW": "PHONE", "GEODATE": "2007\/12\/04", "GEOHOW": "MANUAL", "NAICSCODE": "921190", "NAICSDESCR": "PUBLIC PROPERTY MANAGEMENT SERVICES, GOVERNMENT", "GEOLINKID": "21354158", "X": -122.641130, "Y": 45.457001, "ST_VENDOR": "NAVTEQ", "ST_VERSION": "2006Q4", "GEOPREC": "ONENTITY", "PHONELOC": "YES", "QC_QA": "TGS", "AGENCIES": "OREGON LIQUOR CONTROL COMMISSION", "AGENCY_PH": "" }, "geometry": { "type": "Point", "coordinates": [ 762951.999691, 1358424.226163 ] } }
,
{ "type": "Feature", "properties": { "ID": "10405213", "METLNKID": "", "FEATTYPE": "POINT", "SECCLASS": "UNCLASSIFIED", "NAME": "OREGON DEPARTMENT OF AGRICULTURE BUILDING", "AREA": "", "PHONE": "", "ADDRESS": "635 CAPITOL STREET NORTHEAST", "ADDRESS2": "", "CITY": "SALEM", "STATE": "OR", "ZIP": "97301", "ZIPP4": "2524", "COUNTY": "MARION", "FIPS": "41047", "DIRECTIONS": "NORTHWEST CORNER OF THE INTERSECTION OF CAPITOL STREET NORTHEAST AND UNION STREET NORTHEAST", "EMERGTITLE": "", "EMERGPHONE": "", "EMERGEXT": "", "CONTDATE": "2007\/12\/03", "CONTHOW": "PHONE", "GEODATE": "2007\/12\/03", "GEOHOW": "MANUAL", "NAICSCODE": "921190", "NAICSDESCR": "PUBLIC PROPERTY MANAGEMENT SERVICES, GOVERNMENT", "GEOLINKID": "21371549", "X": -123.026543, "Y": 44.943572, "ST_VENDOR": "NAVTEQ", "ST_VERSION": "2006Q4", "GEOPREC": "ONENTITY", "PHONELOC": "", "QC_QA": "TGS", "AGENCIES": "OREGON DEPARTMENT OF AGRICULTURE; OREGON DEPARTMENT OF LAND CONSERVATION AND DEVELOPMENT", "AGENCY_PH": "503-986-4550" }, "geometry": { "type": "Point", "coordinates": [ 658330.059828, 1174136.318411 ] } }
,
{ "type": "Feature", "properties": { "ID": "10405453", "METLNKID": "", "FEATTYPE": "POINT", "SECCLASS": "UNCLASSIFIED", "NAME": "LABOR AND INDUSTRIES BUILDING", "AREA": "", "PHONE": "", "ADDRESS": "350 WINTER STREET NORTHEAST", "ADDRESS2": "", "CITY": "SALEM", "STATE": "OR", "ZIP": "97301", "ZIPP4": "3875", "COUNTY": "MARION", "FIPS": "41047", "DIRECTIONS": "SOUTHEAST SIDE OF WINTER STREET NORTHEAST BETWEEN CENTER STREET NORTHEAST AND CHEMEKETA STREET NORTHEAST", "EMERGTITLE": "", "EMERGPHONE": "", "EMERGEXT": "", "CONTDATE": "2007\/12\/04", "CONTHOW": "PHONE", "GEODATE": "2007\/12\/04", "GEOHOW": "MANUAL", "NAICSCODE": "921190", "NAICSDESCR": "PUBLIC PROPERTY MANAGEMENT SERVICES, GOVERNMENT", "GEOLINKID": "21371710", "X": -123.030426, "Y": 44.941017, "ST_VENDOR": "NAVTEQ", "ST_VERSION": "2006Q4", "GEOPREC": "ONENTITY", "PHONELOC": "", "QC_QA": "TGS", "AGENCIES": "OREGON DEPARTMENT OF CONSUMER AND BUSINESS SERVICES; OREGON OCCUPATIONAL SAFETY AND HEALTH DIVISION", "AGENCY_PH": "503-378-4100" }, "geometry": { "type": "Point", "coordinates": [ 657296.584554, 1173236.421466 ] } }
,
{ "type": "Feature", "properties": { "ID": "10405409", "METLNKID": "", "FEATTYPE": "POINT", "SECCLASS": "UNCLASSIFIED", "NAME": "COMMERCE BUILDING", "AREA": "", "PHONE": "", "ADDRESS": "158 12TH STREET NORTHEAST", "ADDRESS2": "", "CITY": "SALEM", "STATE": "OR", "ZIP": "97301", "ZIPP4": "4172", "COUNTY": "MARION", "FIPS": "41047", "DIRECTIONS": "SOUTHEAST SIDE OF 12TH STREET NORTHEAST BETWEEN COURT STREET NORTHEAST AND STATE STREET", "EMERGTITLE": "", "EMERGPHONE": "", "EMERGEXT": "", "CONTDATE": "2007\/12\/04", "CONTHOW": "PHONE", "GEODATE": "2007\/12\/04", "GEOHOW": "MANUAL", "NAICSCODE": "921190", "NAICSDESCR": "PUBLIC PROPERTY MANAGEMENT SERVICES, GOVERNMENT", "GEOLINKID": "21371967", "X": -123.026432, "Y": 44.937445, "ST_VENDOR": "NAVTEQ", "ST_VERSION": "2006Q4", "GEOPREC": "ONENTITY", "PHONELOC": "", "QC_QA": "TGS", "AGENCIES": "OREGON WATER RESOURCES DEPARTMENT", "AGENCY_PH": "503-986-0900" }, "geometry": { "type": "Point", "coordinates": [ 658289.976753, 1171902.890986 ] } }
,
{ "type": "Feature", "properties": { "ID": "10405218", "METLNKID": "", "FEATTYPE": "POINT", "SECCLASS": "UNCLASSIFIED", "NAME": "REVENUE BUILDING", "AREA": "", "PHONE": "", "ADDRESS": "955 CENTER STREET NORTHEAST", "ADDRESS2": "", "CITY": "SALEM", "STATE": "OR", "ZIP": "97301", "ZIPP4": "2555", "COUNTY": "MARION", "FIPS": "41047", "DIRECTIONS": "NORTHEAST SIDE OF CENTER STREET NORTHEAST BETWEEN E SUMMER STREET NE AND CAPITOL STREET NORTHEAST", "EMERGTITLE": "", "EMERGPHONE": "", "EMERGEXT": "", "CONTDATE": "2007\/12\/03", "CONTHOW": "PHONE", "GEODATE": "2007\/12\/03", "GEOHOW": "MANUAL", "NAICSCODE": "921190", "NAICSDESCR": "PUBLIC PROPERTY MANAGEMENT SERVICES, GOVERNMENT", "GEOLINKID": "21371696", "X": -123.027814, "Y": 44.941535, "ST_VENDOR": "NAVTEQ", "ST_VERSION": "2006Q4", "GEOPREC": "ONENTITY", "PHONELOC": "", "QC_QA": "TGS", "AGENCIES": "OREGON DEPARTMENT OF REVENUE", "AGENCY_PH": "503-945-8214" }, "geometry": { "type": "Point", "coordinates": [ 657978.168295, 1173404.285436 ] } }
,
{ "type": "Feature", "properties": { "ID": "10405455", "METLNKID": "", "FEATTYPE": "POINT", "SECCLASS": "UNCLASSIFIED", "NAME": "NORTH CAPITOL MALL OFFICE BUILDING", "AREA": "", "PHONE": "", "ADDRESS": "725 SUMMER STREET NORTHEAST", "ADDRESS2": "", "CITY": "SALEM", "STATE": "OR", "ZIP": "97301", "ZIPP4": "1271", "COUNTY": "MARION", "FIPS": "41047", "DIRECTIONS": "NORTHWEST SIDE OF SUMMER STREET NORTHEAST BETWEEN UNION STREET NORTHEAST AND D STREET NORTHEAST", "EMERGTITLE": "", "EMERGPHONE": "", "EMERGEXT": "", "CONTDATE": "2007\/12\/04", "CONTHOW": "PHONE", "GEODATE": "2007\/12\/04", "GEOHOW": "MANUAL", "NAICSCODE": "921190", "NAICSDESCR": "PUBLIC PROPERTY MANAGEMENT SERVICES, GOVERNMENT", "GEOLINKID": "21371502", "X": -123.028000, "Y": 44.944783, "ST_VENDOR": "NAVTEQ", "ST_VERSION": "2006Q4", "GEOPREC": "ONENTITY", "PHONELOC": "", "QC_QA": "TGS", "AGENCIES": "OREGON STATE HOUSING COUNCIL; WATER RESOURCES DEPARTMENT; OREGON HOUSING AND COMMUNITY SERVICES; PARKS AND RECREATION DEPARTMENT", "AGENCY_PH": "503-986-0707" }, "geometry": { "type": "Point", "coordinates": [ 657966.521701, 1174589.221559 ] } }
,
{ "type": "Feature", "properties": { "ID": "10405458", "METLNKID": "", "FEATTYPE": "POINT", "SECCLASS": "UNCLASSIFIED", "NAME": "SUPREME COURT BUILDING", "AREA": "", "PHONE": "", "ADDRESS": "1163 STATE STREET", "ADDRESS2": "", "CITY": "SALEM", "STATE": "OR", "ZIP": "97301", "ZIPP4": "2562", "COUNTY": "MARION", "FIPS": "41047", "DIRECTIONS": "NORTHEAST SIDE OF STATE STREET BETWEEN WAVERLY STREET NORTHEAST AND 12TH STREET NORTHEAST", "EMERGTITLE": "", "EMERGPHONE": "", "EMERGEXT": "", "CONTDATE": "2007\/12\/04", "CONTHOW": "PHONE", "GEODATE": "2007\/12\/04", "GEOHOW": "MANUAL", "NAICSCODE": "921190", "NAICSDESCR": "PUBLIC PROPERTY MANAGEMENT SERVICES, GOVERNMENT", "GEOLINKID": "21371968", "X": -123.027609, "Y": 44.937506, "ST_VENDOR": "NAVTEQ", "ST_VERSION": "2006Q4", "GEOPREC": "ONENTITY", "PHONELOC": "", "QC_QA": "TGS", "AGENCIES": "OREGON SUPREME COURT; OREGON COURT OF APPEALS", "AGENCY_PH": "503-378-4400" }, "geometry": { "type": "Point", "coordinates": [ 657986.162540, 1171934.586323 ] } }
,
{ "type": "Feature", "properties": { "ID": "10405443", "METLNKID": "", "FEATTYPE": "POINT", "SECCLASS": "UNCLASSIFIED", "NAME": "STATE LANDS BUILDING", "AREA": "", "PHONE": "", "ADDRESS": "775 SUMMER STREET NORTHEAST", "ADDRESS2": "", "CITY": "SALEM", "STATE": "OR", "ZIP": "97301", "ZIPP4": "1274", "COUNTY": "MARION", "FIPS": "41047", "DIRECTIONS": "NORTHWEST SIDE OF SUMMER STREET NORTHEAST, 0.13 MILES NORTHEAST OF THE INTERSECTION OF SUMMER STREET NE AND UNION STREET NORTHEAST", "EMERGTITLE": "", "EMERGPHONE": "", "EMERGEXT": "", "CONTDATE": "2007\/12\/04", "CONTHOW": "PHONE", "GEODATE": "2007\/12\/04", "GEOHOW": "MANUAL", "NAICSCODE": "921190", "NAICSDESCR": "PUBLIC PROPERTY MANAGEMENT SERVICES, GOVERNMENT", "GEOLINKID": "21371502", "X": -123.027482, "Y": 44.945348, "ST_VENDOR": "NAVTEQ", "ST_VERSION": "2006Q4", "GEOPREC": "ONENTITY", "PHONELOC": "", "QC_QA": "TGS", "AGENCIES": "ECONOMIC AND COMMUNITY DEVELOPMENT DEPARTMENT; OREGON DEPARTMENT OF STATE LANDS", "AGENCY_PH": "503-986-5200" }, "geometry": { "type": "Point", "coordinates": [ 658106.840437, 1174790.888820 ] } }
,
{ "type": "Feature", "properties": { "ID": "10405433", "METLNKID": "", "FEATTYPE": "POINT", "SECCLASS": "UNCLASSIFIED", "NAME": "EXECUTIVE BUILDING", "AREA": "", "PHONE": "", "ADDRESS": "155 COTTAGE STREET NORTHEAST", "ADDRESS2": "", "CITY": "SALEM", "STATE": "OR", "ZIP": "97301", "ZIPP4": "3964", "COUNTY": "MARION", "FIPS": "41047", "DIRECTIONS": "NORTHWEST SIDE OF COTTAGE STREET NORTHEAST BETWEEN STATE STREET AND COURT STREET NORTHEAST", "EMERGTITLE": "", "EMERGPHONE": "", "EMERGEXT": "", "CONTDATE": "2007\/12\/04", "CONTHOW": "PHONE", "GEODATE": "2007\/12\/04", "GEOHOW": "MANUAL", "NAICSCODE": "921190", "NAICSDESCR": "PUBLIC PROPERTY MANAGEMENT SERVICES, GOVERNMENT", "GEOLINKID": "21371858", "X": -123.034626, "Y": 44.939536, "ST_VENDOR": "NAVTEQ", "ST_VERSION": "2006Q4", "GEOPREC": "ONENTITY", "PHONELOC": "", "QC_QA": "TGS", "AGENCIES": "DEPARTMENT OF ADMINISTRATIVE SERVICES", "AGENCY_PH": "503-378-3104" }, "geometry": { "type": "Point", "coordinates": [ 656192.826061, 1172730.318076 ] } }
,
{ "type": "Feature", "properties": { "ID": "10405464", "METLNKID": "", "FEATTYPE": "POINT", "SECCLASS": "UNCLASSIFIED", "NAME": "OREGON MILITARY DEPARTMENT BUILDING", "AREA": "", "PHONE": "", "ADDRESS": "1776 MILITIA WAY SOUTHEAST", "ADDRESS2": "", "CITY": "SALEM", "STATE": "OR", "ZIP": "97301", "ZIPP4": "", "COUNTY": "MARION", "FIPS": "41047", "DIRECTIONS": "SOUTH SIDE OF MILITIA WAY, APPROX 0.05 MILES WEST OF THE INTERSECTION OF AIRPORT RD SE AND MILITIA WAY SOUTHEAST", "EMERGTITLE": "", "EMERGPHONE": "", "EMERGEXT": "", "CONTDATE": "2007\/12\/04", "CONTHOW": "PHONE", "GEODATE": "2007\/12\/04", "GEOHOW": "MANUAL", "NAICSCODE": "921190", "NAICSDESCR": "PUBLIC PROPERTY MANAGEMENT SERVICES, GOVERNMENT", "GEOLINKID": "21399893", "X": -123.004836, "Y": 44.922166, "ST_VENDOR": "NAVTEQ", "ST_VERSION": "2006Q4", "GEOPREC": "ONENTITY", "PHONELOC": "", "QC_QA": "TGS", "AGENCIES": "DEPARTMENT OF MILITARY; ADJUTANT GENERAL OFFICE; NATIONAL GUARD", "AGENCY_PH": "503-584-3980" }, "geometry": { "type": "Point", "coordinates": [ 663709.182590, 1166164.295820 ] } }
,
{ "type": "Feature", "properties": { "ID": "10405448", "METLNKID": "", "FEATTYPE": "POINT", "SECCLASS": "UNCLASSIFIED", "NAME": "GENERAL SERVICES BUILDING", "AREA": "", "PHONE": "", "ADDRESS": "1225 FERRY STREET SOUTHEAST", "ADDRESS2": "", "CITY": "SALEM", "STATE": "OR", "ZIP": "97301", "ZIPP4": "4280", "COUNTY": "MARION", "FIPS": "41047", "DIRECTIONS": "NORTHEAST CORNER OF THE INTERSECTION OF FERRY STREET SOUTHEAST AND 12TH STREET SOUTHEAST", "EMERGTITLE": "", "EMERGPHONE": "", "EMERGEXT": "", "CONTDATE": "2007\/12\/04", "CONTHOW": "PHONE", "GEODATE": "2007\/12\/04", "GEOHOW": "MANUAL", "NAICSCODE": "921190", "NAICSDESCR": "PUBLIC PROPERTY MANAGEMENT SERVICES, GOVERNMENT", "GEOLINKID": "21372028", "X": -123.027063, "Y": 44.936212, "ST_VENDOR": "NAVTEQ", "ST_VERSION": "2006Q4", "GEOPREC": "ONENTITY", "PHONELOC": "", "QC_QA": "TGS", "AGENCIES": "GISP STATEWIDE GIS COORDINATORS OFFICE; DEPARTMENT OF ADMINISTRATIVE SERVICES", "AGENCY_PH": "" }, "geometry": { "type": "Point", "coordinates": [ 658112.833206, 1171458.671470 ] } }
,
{ "type": "Feature", "properties": { "ID": "10405451", "METLNKID": "", "FEATTYPE": "POINT", "SECCLASS": "UNCLASSIFIED", "NAME": "JUSTICE BUILDING", "AREA": "", "PHONE": "", "ADDRESS": "1162 COURT STREET NORTHEAST", "ADDRESS2": "", "CITY": "SALEM", "STATE": "OR", "ZIP": "97301", "ZIPP4": "4095", "COUNTY": "MARION", "FIPS": "41047", "DIRECTIONS": "SOUTH SIDE OF COURT STREET NE BETWEEN WAVERLY STREET NORTHEAST AND 12TH STREET NE", "EMERGTITLE": "", "EMERGPHONE": "", "EMERGEXT": "", "CONTDATE": "2007\/12\/04", "CONTHOW": "PHONE", "GEODATE": "2007\/12\/04", "GEOHOW": "MANUAL", "NAICSCODE": "921190", "NAICSDESCR": "PUBLIC PROPERTY MANAGEMENT SERVICES, GOVERNMENT", "GEOLINKID": "21371901", "X": -123.027381, "Y": 44.937981, "ST_VENDOR": "NAVTEQ", "ST_VERSION": "2006Q4", "GEOPREC": "ONENTITY", "PHONELOC": "", "QC_QA": "TGS", "AGENCIES": "OREGON DEPARTMENT OF JUSTICE; OREGON ATTORNEY GENERAL", "AGENCY_PH": "503-378-4400" }, "geometry": { "type": "Point", "coordinates": [ 658050.274401, 1172105.681278 ] } }
,
{ "type": "Feature", "properties": { "ID": "10405462", "METLNKID": "", "FEATTYPE": "POINT", "SECCLASS": "UNCLASSIFIED", "NAME": "DEPARTMENT OF ENVIRONMENTAL QUALITY BUILDING", "AREA": "", "PHONE": "", "ADDRESS": "811 SOUTHWEST 6TH AVENUE", "ADDRESS2": "", "CITY": "PORTLAND", "STATE": "OR", "ZIP": "97204", "ZIPP4": "1334", "COUNTY": "MULTNOMAH", "FIPS": "41051", "DIRECTIONS": "NORTHWEST SIDE OF SOUTHWEST 6TH AVENUE BETWEEN SOUTHWEST TAYLOR STREET AND SOUTHWEST YAMHILL STREET", "EMERGTITLE": "", "EMERGPHONE": "", "EMERGEXT": "", "CONTDATE": "2007\/12\/04", "CONTHOW": "PHONE", "GEODATE": "2007\/12\/04", "GEOHOW": "MANUAL", "NAICSCODE": "921190", "NAICSDESCR": "PUBLIC PROPERTY MANAGEMENT SERVICES, GOVERNMENT", "GEOLINKID": "21307446", "X": -122.679615, "Y": 45.518210, "ST_VENDOR": "NAVTEQ", "ST_VERSION": "2006Q4", "GEOPREC": "ONENTITY", "PHONELOC": "", "QC_QA": "TGS", "AGENCIES": "DEPARTMENT OF ENVIRONMENTAL QUALITY", "AGENCY_PH": "503-229-5696" }, "geometry": { "type": "Point", "coordinates": [ 753672.027071, 1380995.073665 ] } }
,
{ "type": "Feature", "properties": { "ID": "10405322", "METLNKID": "", "FEATTYPE": "POINT", "SECCLASS": "UNCLASSIFIED", "NAME": "PUBLIC SERVICE BUILDING", "AREA": "", "PHONE": "", "ADDRESS": "255 CAPITOL STREET NORTHEAST", "ADDRESS2": "", "CITY": "SALEM", "STATE": "OR", "ZIP": "97301", "ZIPP4": "", "COUNTY": "MARION", "FIPS": "41047", "DIRECTIONS": "NORTHEAST SIDE OF COURT STREET NORTHEAST BETWEEN E SUMMER STREET NORTHEAST AND CAPITOL STREET NORTHEAST", "EMERGTITLE": "", "EMERGPHONE": "", "EMERGEXT": "", "CONTDATE": "2007\/12\/03", "CONTHOW": "PHONE", "GEODATE": "2007\/12\/03", "GEOHOW": "MANUAL", "NAICSCODE": "921190", "NAICSDESCR": "PUBLIC PROPERTY MANAGEMENT SERVICES, GOVERNMENT", "GEOLINKID": "21371870", "X": -123.028688, "Y": 44.939263, "ST_VENDOR": "NAVTEQ", "ST_VERSION": "2006Q4", "GEOPREC": "ONENTITY", "PHONELOC": "", "QC_QA": "TGS", "AGENCIES": "OREGON BOARD OF EDUCATION; DEPARTMENT OF COMMUNITY COLLEGES AND WORKFORCE DEVELOPMENT; SECRETARY OF STATE OFFICE", "AGENCY_PH": "503-947-5600" }, "geometry": { "type": "Point", "coordinates": [ 657726.642222, 1172583.461247 ] } }
,
{ "type": "Feature", "properties": { "ID": "10405447", "METLNKID": "", "FEATTYPE": "POINT", "SECCLASS": "UNCLASSIFIED", "NAME": "STATE LOTTERY BUILDING", "AREA": "503", "PHONE": "540-1000", "ADDRESS": "500 AIRPORT ROAD SOUTHEAST", "ADDRESS2": "", "CITY": "SALEM", "STATE": "OR", "ZIP": "97301", "ZIPP4": "5068", "COUNTY": "MARION", "FIPS": "41047", "DIRECTIONS": "ENTRANCE IS ON EAST SIDE OF AIRPORT ROAD SOUTHEAST, APPROX 0.22 MILES SOUTH OF THE INTERSECTION OF AIRPORT ROAD SOUTHEAST AND STATE STREET", "EMERGTITLE": "", "EMERGPHONE": "", "EMERGEXT": "", "CONTDATE": "2007\/12\/04", "CONTHOW": "PHONE", "GEODATE": "2007\/12\/04", "GEOHOW": "MANUAL", "NAICSCODE": "921190", "NAICSDESCR": "PUBLIC PROPERTY MANAGEMENT SERVICES, GOVERNMENT", "GEOLINKID": "124458883", "X": -123.002588, "Y": 44.927735, "ST_VENDOR": "NAVTEQ", "ST_VERSION": "2006Q4", "GEOPREC": "ONENTITY", "PHONELOC": "YES", "QC_QA": "TGS", "AGENCIES": "OREGON STATE LOTTERY", "AGENCY_PH": "503-540-1000" }, "geometry": { "type": "Point", "coordinates": [ 664352.896872, 1168175.952422 ] } }
,
{ "type": "Feature", "properties": { "ID": "10405436", "METLNKID": "", "FEATTYPE": "POINT", "SECCLASS": "UNCLASSIFIED", "NAME": "EMPLOYMENT BUILDING", "AREA": "503", "PHONE": "947-1470", "ADDRESS": "875 UNION STREET NORTHEAST", "ADDRESS2": "", "CITY": "SALEM", "STATE": "OR", "ZIP": "97301", "ZIPP4": "", "COUNTY": "MARION", "FIPS": "41047", "DIRECTIONS": "NORTHEAST SIDE OF UNION STREET NORTHEAST BETWEEN WINTER STREET NORTHEAST AND SUMMER STREET NORTHEAST", "EMERGTITLE": "", "EMERGPHONE": "", "EMERGEXT": "", "CONTDATE": "2007\/12\/04", "CONTHOW": "PHONE", "GEODATE": "2007\/12\/04", "GEOHOW": "MANUAL", "NAICSCODE": "921190", "NAICSDESCR": "PUBLIC PROPERTY MANAGEMENT SERVICES, GOVERNMENT", "GEOLINKID": "21371503", "X": -123.028434, "Y": 44.944109, "ST_VENDOR": "NAVTEQ", "ST_VERSION": "2006Q4", "GEOPREC": "ONENTITY", "PHONELOC": "YES", "QC_QA": "TGS", "AGENCIES": "OREGON DEPT OF EMPLOYMENT", "AGENCY_PH": "503-947-1470" }, "geometry": { "type": "Point", "coordinates": [ 657846.716497, 1174347.039717 ] } }
,
{ "type": "Feature", "properties": { "ID": "10405461", "METLNKID": "", "FEATTYPE": "POINT", "SECCLASS": "UNCLASSIFIED", "NAME": "DEPARTMENT OF CORRECTIONS BUILDING", "AREA": "503", "PHONE": "945-9090", "ADDRESS": "2575 CENTER STREET NORTHEAST", "ADDRESS2": "", "CITY": "SALEM", "STATE": "OR", "ZIP": "97301", "ZIPP4": "4600", "COUNTY": "MARION", "FIPS": "41047", "DIRECTIONS": "NORTH SIDE OF CENTER STREET NE BETWEEN MEDICAL CENTER DRIVE NE AND 23RD STREET NE", "EMERGTITLE": "", "EMERGPHONE": "", "EMERGEXT": "", "CONTDATE": "2007\/12\/04", "CONTHOW": "PHONE", "GEODATE": "2007\/12\/04", "GEOHOW": "MANUAL", "NAICSCODE": "921190", "NAICSDESCR": "PUBLIC PROPERTY MANAGEMENT SERVICES, GOVERNMENT", "GEOLINKID": "21371802", "X": -123.006814, "Y": 44.940799, "ST_VENDOR": "NAVTEQ", "ST_VERSION": "2006Q4", "GEOPREC": "ONENTITY", "PHONELOC": "YES", "QC_QA": "TGS", "AGENCIES": "DEPARTMENT OF CORRECTIONS", "AGENCY_PH": "503-945-9090" }, "geometry": { "type": "Point", "coordinates": [ 663404.435547, 1172969.384644 ] } }
,
{ "type": "Feature", "properties": { "ID": "10405459", "METLNKID": "", "FEATTYPE": "POINT", "SECCLASS": "UNCLASSIFIED", "NAME": "TRANSPORTATION BUILDING", "AREA": "503", "PHONE": "986-3200", "ADDRESS": "355 CAPITOL STREET NORTHEAST", "ADDRESS2": "", "CITY": "SALEM", "STATE": "OR", "ZIP": "97301", "ZIPP4": "3870", "COUNTY": "MARION", "FIPS": "41047", "DIRECTIONS": "NORTHWEST SIDE OF CAPITOL STREET NORTHEAST BETWEEN CHEMEKETA STREET NORTHEAST AND CENTER STREET NORTHEAST", "EMERGTITLE": "", "EMERGPHONE": "", "EMERGEXT": "", "CONTDATE": "2007\/12\/04", "CONTHOW": "PHONE", "GEODATE": "2007\/12\/04", "GEOHOW": "MANUAL", "NAICSCODE": "921190", "NAICSDESCR": "PUBLIC PROPERTY MANAGEMENT SERVICES, GOVERNMENT", "GEOLINKID": "21371772", "X": -123.028221, "Y": 44.940452, "ST_VENDOR": "NAVTEQ", "ST_VERSION": "2006Q4", "GEOPREC": "ONENTITY", "PHONELOC": "YES", "QC_QA": "TGS", "AGENCIES": "OREGON DEPARTMENT OF TRANSPORTATION", "AGENCY_PH": "503-986-3200" }, "geometry": { "type": "Point", "coordinates": [ 657860.640194, 1173012.994564 ] } }
,
{ "type": "Feature", "properties": { "ID": "10405438", "METLNKID": "", "FEATTYPE": "POINT", "SECCLASS": "UNCLASSIFIED", "NAME": "FISH AND WILDLIFE BUILDING", "AREA": "503", "PHONE": "947-6000", "ADDRESS": "3406 CHERRY AVENUE NORTHEAST", "ADDRESS2": "", "CITY": "SALEM", "STATE": "OR", "ZIP": "97303", "ZIPP4": "4924", "COUNTY": "MARION", "FIPS": "41047", "DIRECTIONS": "EAST SIDE OF CHERRY AVE NE BETWEEN SHANGRI-LA STREET NE AND PLYMOUTH DR NE", "EMERGTITLE": "", "EMERGPHONE": "", "EMERGEXT": "", "CONTDATE": "2007\/12\/04", "CONTHOW": "PHONE", "GEODATE": "2007\/12\/04", "GEOHOW": "MANUAL", "NAICSCODE": "921190", "NAICSDESCR": "PUBLIC PROPERTY MANAGEMENT SERVICES, GOVERNMENT", "GEOLINKID": "21369917", "X": -123.020663, "Y": 44.974341, "ST_VENDOR": "NAVTEQ", "ST_VERSION": "2006Q4", "GEOPREC": "ONENTITY", "PHONELOC": "YES", "QC_QA": "TGS", "AGENCIES": "OREGON DEPT OF FISH AND WILDLIFE", "AGENCY_PH": "503-947-6000" }, "geometry": { "type": "Point", "coordinates": [ 660195.886012, 1185301.010769 ] } }
,
{ "type": "Feature", "properties": { "ID": "10405470", "METLNKID": "", "FEATTYPE": "POINT", "SECCLASS": "UNCLASSIFIED", "NAME": "DEPARTMENT OF ENERGY BUILDING", "AREA": "503", "PHONE": "378-4040", "ADDRESS": "625 MARION STREET NORTHEAST", "ADDRESS2": "", "CITY": "SALEM", "STATE": "OR", "ZIP": "97301", "ZIPP4": "3737", "COUNTY": "MARION", "FIPS": "41047", "DIRECTIONS": "NORTH SIDE OF MARION STREET NE BETWEEN CHURCH STREET NE AND COTTAGE STREET NE", "EMERGTITLE": "", "EMERGPHONE": "", "EMERGEXT": "", "CONTDATE": "2007\/12\/04", "CONTHOW": "PHONE", "GEODATE": "2007\/12\/04", "GEOHOW": "MANUAL", "NAICSCODE": "921190", "NAICSDESCR": "PUBLIC PROPERTY MANAGEMENT SERVICES, GOVERNMENT", "GEOLINKID": "21371516", "X": -123.032537, "Y": 44.944138, "ST_VENDOR": "NAVTEQ", "ST_VERSION": "2006Q4", "GEOPREC": "ONENTITY", "PHONELOC": "YES", "QC_QA": "TGS", "AGENCIES": "OREGON DEPARTMENT OF ENERGY", "AGENCY_PH": "503-378-4040" }, "geometry": { "type": "Point", "coordinates": [ 656785.212134, 1174390.338336 ] } }
,
{ "type": "Feature", "properties": { "ID": "10405442", "METLNKID": "", "FEATTYPE": "POINT", "SECCLASS": "UNCLASSIFIED", "NAME": "FORESTRY BUILDING", "AREA": "503", "PHONE": "945-7200", "ADDRESS": "2600 STATE STREET", "ADDRESS2": "", "CITY": "SALEM", "STATE": "OR", "ZIP": "97301", "ZIPP4": "", "COUNTY": "MARION", "FIPS": "41047", "DIRECTIONS": "ENTRANCE ON SOUTH SIDE OF STATE STREET APPROX 0.09 MILES SOUTHEAST OF THE INTERSECTION OF STATE STREET AND 25TH STREET SOUTHEAST", "EMERGTITLE": "", "EMERGPHONE": "", "EMERGEXT": "", "CONTDATE": "2007\/12\/04", "CONTHOW": "PHONE", "GEODATE": "2007\/12\/04", "GEOHOW": "MANUAL", "NAICSCODE": "921190", "NAICSDESCR": "PUBLIC PROPERTY MANAGEMENT SERVICES, GOVERNMENT", "GEOLINKID": "124458889", "X": -123.007742, "Y": 44.931029, "ST_VENDOR": "NAVTEQ", "ST_VERSION": "2006Q4", "GEOPREC": "ONENTITY", "PHONELOC": "YES", "QC_QA": "TGS", "AGENCIES": "OREGON DEPARTMENT OF FORESTRY", "AGENCY_PH": "503-945-7200" }, "geometry": { "type": "Point", "coordinates": [ 663055.580374, 1169416.675490 ] } }
,
{ "type": "Feature", "properties": { "ID": "10405405", "METLNKID": "", "FEATTYPE": "POINT", "SECCLASS": "UNCLASSIFIED", "NAME": "CECIL EDWARDS ARCHIVES BUILDING", "AREA": "503", "PHONE": "373-0701", "ADDRESS": "800 SUMMER STREET NORTHEAST", "ADDRESS2": "", "CITY": "SALEM", "STATE": "OR", "ZIP": "97301", "ZIPP4": "", "COUNTY": "MARION", "FIPS": "41047", "DIRECTIONS": "SOUTHEAST QUADRANT OF THE INTERSECTION OF SUMMER STREET NORTHEAST AND D STREET NORTHEAST", "EMERGTITLE": "", "EMERGPHONE": "", "EMERGEXT": "", "CONTDATE": "2007\/12\/04", "CONTHOW": "PHONE", "GEODATE": "2007\/12\/04", "GEOHOW": "MANUAL", "NAICSCODE": "921190", "NAICSDESCR": "PUBLIC PROPERTY MANAGEMENT SERVICES, GOVERNMENT", "GEOLINKID": "21371502", "X": -123.025631, "Y": 44.945961, "ST_VENDOR": "NAVTEQ", "ST_VERSION": "2006Q4", "GEOPREC": "ONENTITY", "PHONELOC": "YES", "QC_QA": "TGS", "AGENCIES": "OREGON ARCHIVES DIVISION", "AGENCY_PH": "503-373-0701" }, "geometry": { "type": "Point", "coordinates": [ 658592.653450, 1174999.413909 ] } }

]
}
